[
    {
        "code": "ATH",
        "name": "Athens International Airport",
        "city": "Athens",
        "region": "Attica",
        "country": "Greece",
        "elevation": 308.000,
        "lat": 37.9356,
        "lon": 23.9484
    },
    {
        "code": "DBV",
        "name": "Dubrovnik Airport",
        "city": "Dubrovnik",
        "region": "Dubrovnik-Neretva County",
        "country": "Croatia",
        "elevation": 527.000,
        "lat": 42.5603,
        "lon": 18.2622
    },
    {
        "code": "DPS",
        "name": "Ngurah Rai International Airport",
        "city": "Bali",
        "region": "Bali",
        "country": "Indonesia",
        "elevation": 14.000,
        "lat": -8.7467,
        "lon": 115.1668
    },
    {
        "code": "MFM",
        "name": "Macau International Airport",
        "city": "Taipa",
        "region": "Macau",
        "country": "China",
        "elevation": 19.6900,
        "lat": 22.1578,
        "lon": 113.5764
    },
    {
        "code": "MIA",
        "name": "Miami International Airport",
        "city": "Miami",
        "region": "Florida",
        "country": "USA",
        "elevation": 9.8430,
        "lat": 25.7959,
        "lon": -80.2871
    },
    {
        "code": "MLE",
        "name": "Velana International Airport",
        "city": "Hulhulé",
        "region": "North Malé Atoll",
        "country": "Maldives",
        "elevation": 0.000,
        "lat": 4.1888,
        "lon": 73.5286
    },
    {
        "code": "NCE",
        "name": "Nice Côte d'Azur Airport",
        "city": "Nice",
        "region": "Alpes-Maritimes",
        "country": "France",
        "elevation": 13.1200,
        "lat": 43.6598,
        "lon": 7.2148
    },
    {
        "code": "SFO",
        "name": "San Francisco International Airport",
        "city": "San Francisco",
        "region": "California",
        "country": "USA",
        "elevation": 13.00,
        "lat": 37.6213,
        "lon": -122.3790
    },
    {
        "code": "PMI",
        "name": "Palma de Mallorca Airport",
        "city": "Palma",
        "region": "Mallorca",
        "country": "Spain",
        "elevation": 43.000,
        "lat": 39.5696,
        "lon": 2.6502
    },
    {
        "code": "UVF",
        "name": "Hewanorra International Airport",
        "city": "La Tourney",
        "region": "Vieux Fort Quarter",
        "country": "Saint Lucia",
        "elevation": 13.1200,
        "lat": 13.7363,
        "lon": 60.9503
    },
    {
        "code": "ZRH",
        "name": "Zürich Airport",
        "city": "Zürich",
        "region": "Zürich",
        "country": "Switzerland",
        "elevation": 0.000,
        "lat": 47.4612,
        "lon": 8.5535
    }
]

